id,name,altitude,color,statusname,statusid,statustimestamp,firsttimestatus,lastupdated,size,sizeunit,containment,containmentunit,admindivision,admindivisiontype,admindivisionupper,admindivisionuppertype,protectingunit,publicvisibility,number,categoryType,lat,lng
D7503D5E-874D-4FB4-9FD2-02C122FD2550,Ferrocarril,4.361,#FF0000,Active,9ABFE884-54FD-43AE-A309-0E03D24C3BC4,2025-08-09T19:15:30.000Z,2025-08-09T17:42:59.000Z,2025-08-09T19:45:46.473Z,10.0,Acres,0,Percent,Cameron,COUNTY,5,REGION,TXTXS - Texas A & M Forest Service,Visible,253745,Wildfire,26.09666666666686,-97.39888888888888
1F0986B7-00A1-436B-8DE7-C874C25B9956,Angelina 3746,60.0417,#FF0000,Active,9ABFE884-54FD-43AE-A309-0E03D24C3BC4,2025-08-09T19:32:00.000Z,2025-08-09T17:35:00.000Z,2025-08-09T19:44:42.114Z,10.0,Acres,0,Percent,Angelina,COUNTY,3B,REGION,TXTXS - Texas A & M Forest Service,Visible,253746,Wildfire,31.199629999999992,-94.64443
83E957DB-41D9-434D-8FC4-B0E0E00E0E9D,Cass 3744,93.0561,#93735D,Contained,408E3A31-82B6-4C0D-9697-64F86B525A8F,2025-08-09T19:33:00.000Z,2025-08-09T17:24:00.000Z,2025-08-09T19:57:11.155Z,2.0,Acres,100,Percent,Cass,COUNTY,3A,REGION,TXTXS - Texas A & M Forest Service,Visible,253744,Wildfire,33.15845,-94.0508
5BA72ED0-ACFF-4994-BC10-6CCFC14524DE,Russel Creek,439.369,#93735D,Contained,408E3A31-82B6-4C0D-9697-64F86B525A8F,2025-08-08T22:59:37.000Z,2025-08-08T17:59:31.000Z,2025-08-08T23:01:58.166Z,2.6,Acres,100,Percent,Eastland,COUNTY,1B,REGION,TXTXS - Texas A & M Forest Service,Visible,253734,Wildfire,32.468266666666835,-98.63381666666662
7030773B-353D-412E-BA60-911A3771E6AF,Farmer,0.0,#93735D,Contained,408E3A31-82B6-4C0D-9697-64F86B525A8F,2025-08-07T02:53:16.000Z,2025-08-06T22:37:43.000Z,2025-08-07T20:58:49.826Z,5.5,Acres,100,Percent,Callahan,COUNTY,1B,REGION,TXTXS - Texas A & M Forest Service,Visible,253705,Wildfire,32.202466666666666,-99.20408333333333
EF2987E8-FB30-4148-AFFE-0C8A0D5AA378,Silver Mountain,0.0,#93735D,Contained,408E3A31-82B6-4C0D-9697-64F86B525A8F,2025-08-08T00:53:17.000Z,2025-08-05T23:24:26.000Z,2025-08-08T00:53:52.442Z,262.0,Acres,100,Percent,Bexar,COUNTY,6,REGION,TXTXS - Texas A & M Forest Service,Visible,253692,Wildfire,29.193055555555766,-98.54722222222219
