id,name,altitude,color,statusname,statusid,statustimestamp,firsttimestatus,lastupdated,size,sizeunit,containment,containmentunit,admindivision,admindivisiontype,admindivisionupper,admindivisionuppertype,protectingunit,publicvisibility,number,categoryType,lat,lng
86F78286-2CE0-4157-BF3C-5AF9F21165BA,Henry,308.5794,#FF0000,Active,9ABFE884-54FD-43AE-A309-0E03D24C3BC4,2025-12-17T22:09:46.000Z,2025-12-17T20:50:05.000Z,2025-12-17T22:52:25.328Z,100.0,Acres,10,Percent,Clay,COUNTY,2,REGION,TXTXS - Texas A & M Forest Service,Visible,255802,Wildfire,33.69149999999999,-98.19820000000001
4B4417A4-8F74-45C9-92E2-096DB5A9780C,Wood 5782,127.9941,#595959,Controlled,6CE1E29B-606F-46CB-AEC6-6B9C40B2B18F,2025-12-17T14:56:00.000Z,2025-12-16T18:39:00.000Z,2025-12-17T14:57:13.162Z,28.0,Acres,100,Percent,Wood,COUNTY,3A,REGION,TXTXS - Texas A & M Forest Service,Visible,255782,Wildfire,32.67727833333333,-95.20319000000002
74E15187-5DBD-41C0-AFCA-A725B16CE974,Pine Creek,130.1793,#93735D,Contained,408E3A31-82B6-4C0D-9697-64F86B525A8F,2025-12-15T17:19:56.000Z,2025-12-14T21:31:28.000Z,2025-12-15T17:45:04.130Z,1.0,Acres,100,Percent,Bastrop,COUNTY,8,REGION,TXTXS - Texas A & M Forest Service,Visible,255750,Wildfire,30.073168333333335,-97.24650000000001
46DBBFB7-AFB9-4B25-A49C-BD7EC8D6D8DB,Red River 5749,135.8866,#595959,Controlled,6CE1E29B-606F-46CB-AEC6-6B9C40B2B18F,2025-12-17T18:42:00.000Z,2025-12-14T20:10:00.000Z,2025-12-17T18:42:57.765Z,8.5,Acres,100,Percent,Red River,COUNTY,3A,REGION,TXTXS - Texas A & M Forest Service,Visible,255749,Wildfire,33.760155874852664,-95.0710594801763
0F384616-4700-4ED1-A496-B1F8202B265D,Rusk 5742,129.2152,#595959,Controlled,6CE1E29B-606F-46CB-AEC6-6B9C40B2B18F,2025-12-17T18:44:25.000Z,2025-12-13T06:48:00.000Z,2025-12-17T18:45:07.741Z,0.04,Acres,100,Percent,Rusk,COUNTY,3A,REGION,TXTXS - Texas A & M Forest Service,Visible,255742,Wildfire,32.27514153284946,-94.95087903084006
F0F5CFB6-8FF2-4D3F-A08E-43DFA2F452D0,Red River 5672,139.2824,#595959,Controlled,6CE1E29B-606F-46CB-AEC6-6B9C40B2B18F,2025-12-17T18:43:47.000Z,2025-12-10T23:56:00.000Z,2025-12-17T18:44:02.912Z,1.0,Acres,100,Percent,Red River,COUNTY,3A,REGION,TXTXS - Texas A & M Forest Service,Visible,255672,Wildfire,33.6591448854319,-95.17622535612058
