id,name,altitude,color,statusname,statusid,statustimestamp,firsttimestatus,lastupdated,size,sizeunit,containment,containmentunit,admindivision,admindivisiontype,admindivisionupper,admindivisionuppertype,protectingunit,publicvisibility,number,categoryType,lat,lng
5B9863FE-DFB6-43BD-B005-DFAF6AD75457,Nueces 2683,21.0486,#FF0000,Active,9ABFE884-54FD-43AE-A309-0E03D24C3BC4,2025-05-16T21:46:53.000Z,2025-05-16T20:37:14.000Z,2025-05-17T00:18:41.791Z,7.0,Acres,90,Percent,Nueces,COUNTY,5,REGION,TXTXS - Texas A & M Forest Service,Visible,252683,Wildfire,27.611625,-97.83538600000001
A0D5343A-69CE-4B29-9375-F3B880B44D61,Fullmoon,83.9812,#93735D,Contained,408E3A31-82B6-4C0D-9697-64F86B525A8F,2025-05-16T15:47:08.000Z,2025-05-15T03:22:00.000Z,2025-05-16T15:47:54.023Z,47.0,Acres,100,Percent,Grimes,COUNTY,8,REGION,TXTXS - Texas A & M Forest Service,Visible,252661,Wildfire,30.33539,-95.83651
09455AEE-96DA-481D-906F-86C2B17787A2,Rusk 2662,130.1407,#93735D,Contained,408E3A31-82B6-4C0D-9697-64F86B525A8F,2025-05-15T06:02:00.000Z,2025-05-15T03:17:00.000Z,2025-05-15T06:23:59.251Z,5.6,Acres,100,Percent,Rusk,COUNTY,3A,REGION,TXTXS - Texas A & M Forest Service,Visible,252662,Wildfire,32.29094500000001,-94.60892400000002
614014DC-E83E-464C-B608-EAC4EE44F83E,Cass 2646,82.6492,#93735D,Contained,408E3A31-82B6-4C0D-9697-64F86B525A8F,2025-05-13T23:40:00.000Z,2025-05-13T22:22:00.000Z,2025-05-14T00:40:15.042Z,2.0,Acres,100,Percent,Cass,COUNTY,3A,REGION,TXTXS - Texas A & M Forest Service,Visible,252646,Wildfire,33.05375,-94.30184999999999
D1D4F406-C6E9-4BC8-9EF9-3845A24C104F,Reverse,602.955,#93735D,Contained,408E3A31-82B6-4C0D-9697-64F86B525A8F,2025-05-15T00:55:34.000Z,2025-05-13T20:24:11.000Z,2025-05-15T00:55:54.482Z,79.0,Acres,100,Percent,Gillespie,COUNTY,6,REGION,TXTXS - Texas A & M Forest Service,Visible,252642,Wildfire,30.301672819336883,-99.03726244080126
3C446854-4055-4676-96A0-EB0B55ED251F,Blue,1979.2238,#93735D,Contained,408E3A31-82B6-4C0D-9697-64F86B525A8F,2025-05-12T19:00:58.000Z,2025-05-10T22:35:10.000Z,2025-05-12T19:01:13.272Z,3.0,Acres,100,Percent,Jeff Davis,COUNTY,7,REGION,TXTXS - Texas A & M Forest Service,Visible,252614,Wildfire,30.614166666666655,-104.15233333333333
