id,name,altitude,color,statusname,statusid,statustimestamp,firsttimestatus,lastupdated,size,sizeunit,containment,containmentunit,admindivision,admindivisiontype,admindivisionupper,admindivisionuppertype,protectingunit,publicvisibility,number,categoryType,lat,lng
5D60F3AD-BDCA-40B2-9536-A8015942AA36,Workers,604.829,#93735D,Contained,408E3A31-82B6-4C0D-9697-64F86B525A8F,2025-09-01T23:56:00.000Z,2025-09-01T20:42:37.000Z,2025-09-02T00:05:06.312Z,14.0,Acres,100,Percent,Callahan,COUNTY,1B,REGION,TXTXS - Texas A & M Forest Service,Visible,254167,Wildfire,32.452720000000184,-99.53756999999996
2642083B-8BCC-43B9-B543-C1D921C83D7B,Tyler 4153,100.9379,#93735D,Contained,408E3A31-82B6-4C0D-9697-64F86B525A8F,2025-08-30T22:31:00.000Z,2025-08-30T20:10:00.000Z,2025-08-31T01:33:58.051Z,2.0,Acres,100,Percent,Tyler,COUNTY,3B,REGION,TXTXS - Texas A & M Forest Service,Visible,254153,Wildfire,30.741133333333337,-94.42928333333334
94CC9A57-1743-4B26-AE5D-4060AE7FF92C,Holly,149.0278,#93735D,Contained,408E3A31-82B6-4C0D-9697-64F86B525A8F,2025-08-29T18:31:46.000Z,2025-08-29T11:34:39.000Z,2025-08-29T18:44:03.008Z,7.5,Acres,100,Percent,Bastrop,COUNTY,8,REGION,TXTXS - Texas A & M Forest Service,Visible,254146,Wildfire,30.255666666666666,-97.08951666666668
E4F4B94F-49CF-4171-928C-FA2D44C2EACD,Angelina 4144,72.7721,#595959,Controlled,6CE1E29B-606F-46CB-AEC6-6B9C40B2B18F,2025-09-02T18:19:00.000Z,2025-08-29T01:13:00.000Z,2025-09-02T18:20:37.610Z,9.1,Acres,100,Percent,Angelina,COUNTY,3B,REGION,TXTXS - Texas A & M Forest Service,Visible,254144,Wildfire,31.099299999999978,-94.26979999999999
BB4DA524-F218-4905-9979-DE928A2F0EEB,San Augustine 4140,103.7108,#595959,Controlled,6CE1E29B-606F-46CB-AEC6-6B9C40B2B18F,2025-09-02T18:39:00.000Z,2025-08-28T22:59:00.000Z,2025-09-02T18:40:27.673Z,1.0,Acres,100,Percent,San Augustine,COUNTY,3B,REGION,TXTXS - Texas A & M Forest Service,Visible,254140,Wildfire,31.453999999999994,-94.25946
F25F4637-8B1E-4716-817B-5C7026699A77,Sheep Creek,441.0862,#93735D,Contained,408E3A31-82B6-4C0D-9697-64F86B525A8F,2025-08-29T00:21:03.000Z,2025-08-28T01:06:27.000Z,2025-08-29T00:23:35.639Z,37.0,Acres,100,Percent,Callahan,COUNTY,1B,REGION,TXTXS - Texas A & M Forest Service,Visible,254124,Wildfire,32.44969830771015,-99.22708332806377
