id,name,altitude,color,statusname,statusid,statustimestamp,firsttimestatus,lastupdated,size,sizeunit,containment,containmentunit,admindivision,admindivisiontype,admindivisionupper,admindivisionuppertype,protectingunit,publicvisibility,number,categoryType,lat,lng
A0D5343A-69CE-4B29-9375-F3B880B44D61,Grimes 2661,83.9812,#FF0000,Active,9ABFE884-54FD-43AE-A309-0E03D24C3BC4,2025-05-15T04:26:37.000Z,2025-05-15T03:22:00.000Z,2025-05-15T04:31:04.917Z,5.0,Acres,0,Percent,Grimes,COUNTY,8,REGION,TXTXS - Texas A & M Forest Service,Visible,252661,Wildfire,30.33539,-95.83651
09455AEE-96DA-481D-906F-86C2B17787A2,Rusk 2662,130.1407,#93735D,Contained,408E3A31-82B6-4C0D-9697-64F86B525A8F,2025-05-15T06:02:00.000Z,2025-05-15T03:17:00.000Z,2025-05-15T06:23:59.251Z,5.6,Acres,100,Percent,Rusk,COUNTY,3A,REGION,TXTXS - Texas A & M Forest Service,Visible,252662,Wildfire,32.29094500000001,-94.60892400000002
614014DC-E83E-464C-B608-EAC4EE44F83E,Cass 2646,82.6492,#93735D,Contained,408E3A31-82B6-4C0D-9697-64F86B525A8F,2025-05-13T23:40:00.000Z,2025-05-13T22:22:00.000Z,2025-05-14T00:40:15.042Z,2.0,Acres,100,Percent,Cass,COUNTY,3A,REGION,TXTXS - Texas A & M Forest Service,Visible,252646,Wildfire,33.05375,-94.30184999999999
D1D4F406-C6E9-4BC8-9EF9-3845A24C104F,Reverse,602.955,#93735D,Contained,408E3A31-82B6-4C0D-9697-64F86B525A8F,2025-05-15T00:55:34.000Z,2025-05-13T20:24:11.000Z,2025-05-15T00:55:54.482Z,79.0,Acres,100,Percent,Gillespie,COUNTY,6,REGION,TXTXS - Texas A & M Forest Service,Visible,252642,Wildfire,30.301672819336883,-99.03726244080126
18B9EF71-A55C-4E12-80E9-E85DF1C45E08,Joliet,140.5256,#93735D,Contained,408E3A31-82B6-4C0D-9697-64F86B525A8F,2025-05-12T13:36:19.000Z,2025-05-11T20:47:23.000Z,2025-05-12T14:51:05.973Z,10.2,Acres,100,Percent,Caldwell,COUNTY,8,REGION,TXTXS - Texas A & M Forest Service,Visible,252619,Wildfire,29.762500000000184,-97.6811111111111
3C446854-4055-4676-96A0-EB0B55ED251F,Blue,1979.2238,#93735D,Contained,408E3A31-82B6-4C0D-9697-64F86B525A8F,2025-05-12T19:00:58.000Z,2025-05-10T22:35:10.000Z,2025-05-12T19:01:13.272Z,3.0,Acres,100,Percent,Jeff Davis,COUNTY,7,REGION,TXTXS - Texas A & M Forest Service,Visible,252614,Wildfire,30.614166666666655,-104.15233333333333
