id,name,altitude,color,statusname,statusid,statustimestamp,firsttimestatus,lastupdated,size,sizeunit,containment,containmentunit,admindivision,admindivisiontype,admindivisionupper,admindivisionuppertype,protectingunit,publicvisibility,number,categoryType,lat,lng
4FF0E847-D018-4E21-8A91-5269EA40E1BF,Angelina 2160,93.8527,#FF0000,Active,9ABFE884-54FD-43AE-A309-0E03D24C3BC4,2025-04-11T21:38:00.000Z,2025-04-11T21:10:00.000Z,2025-04-11T21:48:25.285Z,0.1,Acres,0,Percent,Angelina,COUNTY,3B,REGION,TXTXS - Texas A & M Forest Service,Visible,252160,Wildfire,31.344699999999992,-94.82598
A61CBC91-D940-4E1E-A537-29F9677B16CA,Panola 2157,103.7495,#93735D,Contained,408E3A31-82B6-4C0D-9697-64F86B525A8F,2025-04-11T21:51:00.000Z,2025-04-11T19:29:00.000Z,2025-04-11T21:54:36.855Z,34.2,Acres,100,Percent,Panola,COUNTY,3A,REGION,TXTXS - Texas A & M Forest Service,Visible,252157,Wildfire,32.15728715680904,-94.3810835032862
6F63D452-A44F-43F5-A055-E5E62D079A3A,Walker 2154,92.4764,#93735D,Contained,408E3A31-82B6-4C0D-9697-64F86B525A8F,2025-04-11T21:12:00.000Z,2025-04-11T17:35:00.000Z,2025-04-11T21:18:39.164Z,19.5,Acres,100,Percent,Walker,COUNTY,4,REGION,TXTXS - Texas A & M Forest Service,Visible,252154,Wildfire,30.76433333333333,-95.642
A1B740B3-835D-4E79-BFDB-D389F0EB9B44,Salt Flats,5.8032,#FF0000,Active,9ABFE884-54FD-43AE-A309-0E03D24C3BC4,2025-04-09T19:12:48.000Z,2025-04-09T18:19:56.000Z,2025-04-11T04:17:13.855Z,157.0,Acres,85,Percent,Aransas,COUNTY,5,REGION,TXTXS - Texas A & M Forest Service,Visible,252063,Wildfire,27.993961999999993,-97.10483299999999
2619D310-0BC6-43FB-8132-D451C28F2424,Caddy Peak,556.0352,#93735D,Contained,408E3A31-82B6-4C0D-9697-64F86B525A8F,2025-04-09T21:35:07.000Z,2025-04-09T18:09:11.000Z,2025-04-09T21:36:13.351Z,24.0,Acres,100,Percent,Callahan,COUNTY,1B,REGION,TXTXS - Texas A & M Forest Service,Visible,252062,Wildfire,32.14824000000018,-99.23340999999998
41EF004C-97EF-4F21-B9FF-E10E58F1244E,Aransas Woods,5.1643,#FF0000,Active,9ABFE884-54FD-43AE-A309-0E03D24C3BC4,2025-04-08T22:26:13.000Z,2025-04-08T21:43:08.000Z,2025-04-11T15:26:40.359Z,38.0,Acres,95,Percent,Aransas,COUNTY,5,REGION,TXTXS - Texas A & M Forest Service,Visible,252030,Wildfire,27.98867,-97.10655
