id,name,altitude,color,statusname,statusid,statustimestamp,firsttimestatus,lastupdated,size,sizeunit,containment,containmentunit,admindivision,admindivisiontype,admindivisionupper,admindivisionuppertype,protectingunit,publicvisibility,number,categoryType,lat,lng
A0B714AD-7A61-4E19-A7DD-1895C337DF70,San Patricio 3815,6.3845,#FF0000,Active,9ABFE884-54FD-43AE-A309-0E03D24C3BC4,2025-08-13T21:24:18.000Z,2025-08-13T20:10:50.000Z,2025-08-13T22:10:41.567Z,4.0,Acres,0,Percent,San Patricio,COUNTY,5,REGION,TXTXS - Texas A & M Forest Service,Visible,253815,Wildfire,27.859999999999996,-97.19277777777778
5367F4E2-E7F4-4961-A075-26622E1ACA7D,Derailment,0.0,#FF0000,Active,9ABFE884-54FD-43AE-A309-0E03D24C3BC4,2025-08-12T23:13:28.000Z,2025-08-12T22:34:34.000Z,2025-08-13T21:24:59.069Z,20.0,Acres,90,Percent,Palo Pinto,COUNTY,2,REGION,TXTXS - Texas A & M Forest Service,Visible,253797,Wildfire,32.54087000000018,-98.33771999999998
A1B39E5A-E91E-4765-A049-D5AA68CED773,Cass 3792,82.4888,#93735D,Contained,408E3A31-82B6-4C0D-9697-64F86B525A8F,2025-08-12T20:18:00.000Z,2025-08-12T18:44:00.000Z,2025-08-12T21:08:21.211Z,3.0,Acres,100,Percent,Cass,COUNTY,3A,REGION,TXTXS - Texas A & M Forest Service,Visible,253792,Wildfire,33.22616666666667,-94.12383333333334
BE38D577-D1CE-40AE-AFF0-74E80EBA87D1,Newton 3766,47.5267,#93735D,Contained,408E3A31-82B6-4C0D-9697-64F86B525A8F,2025-08-11T04:10:00.000Z,2025-08-11T02:35:00.000Z,2025-08-11T04:42:21.093Z,1.2,Acres,100,Percent,Newton,COUNTY,3B,REGION,TXTXS - Texas A & M Forest Service,Visible,253766,Wildfire,30.794316666666678,-93.73071666666667
5849F359-9EAA-4CA8-A3F5-891BE24D77EC,Henderson 3759,165.4241,#93735D,Contained,408E3A31-82B6-4C0D-9697-64F86B525A8F,2025-08-10T21:56:00.000Z,2025-08-10T18:35:00.000Z,2025-08-10T22:04:19.494Z,34.0,Acres,100,Percent,Henderson,COUNTY,3A,REGION,TXTXS - Texas A & M Forest Service,Visible,253759,Wildfire,32.21406666666667,-95.90651666666668
83E957DB-41D9-434D-8FC4-B0E0E00E0E9D,Cass 3744,93.0561,#93735D,Contained,408E3A31-82B6-4C0D-9697-64F86B525A8F,2025-08-09T19:33:00.000Z,2025-08-09T17:24:00.000Z,2025-08-09T21:20:18.436Z,2.0,Acres,100,Percent,Cass,COUNTY,3A,REGION,TXTXS - Texas A & M Forest Service,Visible,253744,Wildfire,33.15845,-94.0508
