id,name,altitude,color,statusname,statusid,statustimestamp,firsttimestatus,lastupdated,size,sizeunit,containment,containmentunit,admindivision,admindivisiontype,admindivisionupper,admindivisionuppertype,protectingunit,publicvisibility,number,categoryType,lat,lng
D00000B0-1236-4302-8A23-6FE2AC3C7E7B,Hunt 3603,168.2702,#FF0000,Active,9ABFE884-54FD-43AE-A309-0E03D24C3BC4,2025-07-30T20:55:24.000Z,2025-07-30T20:50:46.000Z,2025-07-30T20:56:16.833Z,5,Acres,0,Percent,Hunt,COUNTY,2,REGION,TXTXS - Texas A & M Forest Service,Visible,253603,Wildfire,33.14806666666686,-95.90639999999998
E4E117F7-3696-42EA-A682-C6099DB02E61,Smith 3598,163.5939,#FF0000,Active,9ABFE884-54FD-43AE-A309-0E03D24C3BC4,2025-07-30T19:50:00.000Z,2025-07-30T18:33:00.000Z,2025-07-30T20:34:00.242Z,3,Acres,70,Percent,Smith,COUNTY,3A,REGION,TXTXS - Texas A & M Forest Service,Visible,253598,Wildfire,32.26461666666666,-95.31238333333333
26564179-E42B-4489-B8B7-41E2F6BDB591,Buffalo,309.9146,#FF0000,Active,9ABFE884-54FD-43AE-A309-0E03D24C3BC4,2025-07-30T03:37:30.000Z,2025-07-30T01:57:20.000Z,2025-07-30T20:17:56.937Z,110,Acres,75,Percent,Clay,COUNTY,2,REGION,TXTXS - Texas A & M Forest Service,Visible,253580,Wildfire,33.472633333333334,-98.35443333333333
95059D7C-169A-4B28-80A3-E4903CA694C3,Bird,0.0,#93735D,Contained,408E3A31-82B6-4C0D-9697-64F86B525A8F,2025-07-27T23:13:21.000Z,2025-07-26T20:59:00.000Z,2025-07-27T23:13:27.705Z,28,Acres,100,Percent,Wichita,COUNTY,2,REGION,TXTXS - Texas A & M Forest Service,Visible,253547,Wildfire,34.127201,-98.844967
928D3544-2558-4A38-A799-01020C38B0C1,Angelina 3172,104.9834,#93735D,Contained,408E3A31-82B6-4C0D-9697-64F86B525A8F,2025-06-22T23:12:00.000Z,2025-06-22T19:36:00.000Z,2025-06-22T23:15:52.423Z,1,Acres,100,Percent,Angelina,COUNTY,3B,REGION,TXTXS - Texas A & M Forest Service,Visible,253172,Wildfire,31.163600000000006,-94.39575
