id,name,altitude,color,statusname,statusid,statustimestamp,firsttimestatus,lastupdated,size,sizeunit,containment,containmentunit,admindivision,admindivisiontype,admindivisionupper,admindivisionuppertype,protectingunit,publicvisibility,number,categoryType,lat,lng
0C650631-D787-48FB-AD11-65462846D0D7,Walker 2064,72.5501,#595959,Controlled,6CE1E29B-606F-46CB-AEC6-6B9C40B2B18F,2025-04-09T21:40:00.000Z,2025-04-09T18:47:00.000Z,2025-04-09T21:40:26.574Z,8.7,Acres,100,Percent,Walker,COUNTY,4,REGION,TXTXS - Texas A & M Forest Service,Visible,252064,Wildfire,30.852383822613024,-95.80894034232986
A1B740B3-835D-4E79-BFDB-D389F0EB9B44,Salt Flats,5.8032,#FF0000,Active,9ABFE884-54FD-43AE-A309-0E03D24C3BC4,2025-04-09T19:12:48.000Z,2025-04-09T18:19:56.000Z,2025-04-09T21:43:11.831Z,100.0,Acres,0,Percent,Aransas,COUNTY,5,REGION,TXTXS - Texas A & M Forest Service,Visible,252063,Wildfire,27.993961999999993,-97.10483299999999
2619D310-0BC6-43FB-8132-D451C28F2424,Caddy Peak,556.0352,#93735D,Contained,408E3A31-82B6-4C0D-9697-64F86B525A8F,2025-04-09T21:35:07.000Z,2025-04-09T18:09:11.000Z,2025-04-09T21:36:13.351Z,24.0,Acres,100,Percent,Callahan,COUNTY,1B,REGION,TXTXS - Texas A & M Forest Service,Visible,252062,Wildfire,32.14824000000018,-99.23340999999998
41EF004C-97EF-4F21-B9FF-E10E58F1244E,Aransas Woods,5.1643,#FF0000,Active,9ABFE884-54FD-43AE-A309-0E03D24C3BC4,2025-04-08T22:26:13.000Z,2025-04-08T21:43:08.000Z,2025-04-09T16:58:55.256Z,38.0,Acres,95,Percent,Aransas,COUNTY,5,REGION,TXTXS - Texas A & M Forest Service,Visible,252030,Wildfire,27.98867,-97.10655
4BF2A1B3-0E68-42DA-A925-1D9D44C852EC,Hotdog,499.4424,#93735D,Contained,408E3A31-82B6-4C0D-9697-64F86B525A8F,2025-04-09T00:13:34.000Z,2025-04-08T21:33:26.000Z,2025-04-09T00:28:18.219Z,16.0,Acres,100,Percent,Shackelford,COUNTY,1B,REGION,TXTXS - Texas A & M Forest Service,Visible,252029,Wildfire,32.71833333333333,-99.36749999999999
