id,name,altitude,color,statusname,statusid,statustimestamp,firsttimestatus,lastupdated,size,sizeunit,containment,containmentunit,admindivision,admindivisiontype,admindivisionupper,admindivisionuppertype,protectingunit,publicvisibility,number,categoryType,lat,lng
54EC72D0-E40F-4DD1-A9A6-F91BD7336202,Hunggate,1091.6777,#FF0000,Active,9ABFE884-54FD-43AE-A309-0E03D24C3BC4,2026-05-14T22:28:01.000Z,2026-05-14T22:23:29.000Z,2026-05-15T00:27:06.212Z,3000.0,Acres,0,Percent,Randall,COUNTY,1A,REGION,TXTXS - Texas A & M Forest Service,Visible,264092,Wildfire,34.94154999999999,-101.95506666666668
28179CA9-F7F5-4A57-A4E5-C1F7C98D9C13,Rusk 4088,141.2704,#93735D,Contained,408E3A31-82B6-4C0D-9697-64F86B525A8F,2026-05-14T23:35:00.000Z,2026-05-14T21:17:00.000Z,2026-05-15T00:32:39.653Z,1.87,Acres,100,Percent,Rusk,COUNTY,3A,REGION,TXTXS - Texas A & M Forest Service,Visible,264088,Wildfire,32.36501,-94.94882000000001
FEF8E2C3-C132-4E54-8EC3-34BC401364A6,Bowie 4050,100.6761,#93735D,Contained,408E3A31-82B6-4C0D-9697-64F86B525A8F,2026-05-12T19:56:00.000Z,2026-05-12T18:48:00.000Z,2026-05-13T17:44:59.281Z,2.0,Acres,100,Percent,Bowie,COUNTY,3A,REGION,TXTXS - Texas A & M Forest Service,Visible,264050,Wildfire,33.50966,-94.41692999999998
ECB9B5C0-BED4-4A9B-8613-8458D3427527,L11,978.3372,#93735D,Contained,408E3A31-82B6-4C0D-9697-64F86B525A8F,2026-05-11T21:45:40.000Z,2026-05-11T19:59:34.000Z,2026-05-12T22:13:47.369Z,15.0,Acres,100,Percent,Pecos,COUNTY,7,REGION,TXTXS - Texas A & M Forest Service,Visible,264041,Wildfire,30.782131000000188,-103.06541899999996
C204158B-869C-437F-BC21-83B59AED1575,Nacogdoches 3606,141.6239,#93735D,Contained,408E3A31-82B6-4C0D-9697-64F86B525A8F,2026-04-12T00:41:00.000Z,2026-04-11T22:47:00.000Z,2026-04-12T00:44:39.075Z,2.0,Acres,100,Percent,Nacogdoches,COUNTY,3B,REGION,TXTXS - Texas A & M Forest Service,Visible,263606,Wildfire,31.73101666666666,-94.66471666666666
4CEEA569-3A14-46E2-A01D-5D68A5A1E59D,Sabine 3508,66.2268,#93735D,Contained,408E3A31-82B6-4C0D-9697-64F86B525A8F,2026-04-08T22:12:00.000Z,2026-04-08T20:00:00.000Z,2026-04-08T22:14:58.936Z,14.0,Acres,100,Percent,Sabine,COUNTY,3B,REGION,TXTXS - Texas A & M Forest Service,Visible,263508,Wildfire,31.210633333333327,-93.94941666666665
